Code, Name, City, Country, Latitude, Longitude
CDG,Charles De Gaulle,Paris,France,49.012779,2.550000
JFK,John F Kennedy Intl,New York,United States,40.639751,-73.778925
KEF,Keflavik International Airport,Keflavik,Iceland,63.985000,-22.605556
OSL,Gardermoen,Oslo,Norway,60.193917,11.100361
YUL,Pierre Elliott Trudeau Intl,Montreal,Canada,45.470556,-73.740833
ALG,Houari Boumediene,Algier,Algeria,36.691014,3.215408